[{"part_number":1,"part_name":"utkramit madhya Vidyalay Suratapur (Dakshin bhag) kamra no-1","lat":25.333293,"lng":84.159556},{"part_number":2,"part_name":"utkramit madhya Vidyalay Surtapur (Uttar bhag) kamara no-1","lat":25.367695,"lng":84.0556283},{"part_number":3,"part_name":"Prathamik Vidyalay Gangadhi kamra no-1","lat":25.3406065,"lng":84.0525745},{"part_number":4,"part_name":"Prathamik Vidyalay Maira","lat":25.3351682,"lng":84.0432567},{"part_number":5,"part_name":"Bapu Smriti NAGESH Uchcha Vidyalay Sainsad (Pashchim Bhag) kamara no-1","lat":25.3478283,"lng":84.069955},{"part_number":6,"part_name":"Bapu smriti nagesh Uchcha Vidyalay Saisad (purab Bhag) kamara no-1","lat":25.3478433,"lng":84.070245},{"part_number":7,"part_name":"BAPU SMRITI NAGESH UNCH VIDHALAY SAISAR (PURAB BHAG) kamara no-2","lat":25.3478243,"lng":84.0702044},{"part_number":8,"part_name":"Prathamik Vidyalay Dahigana kamara no-1","lat":25.3525601,"lng":84.0845117},{"part_number":9,"part_name":"Prathamik Vidyalay Dumara","lat":25.339365,"lng":84.0861117},{"part_number":10,"part_name":"Madhya Vidyalay Bisikala (Uttar Bhag) kamra no-1","lat":25.2473648,"lng":84.0659558},{"part_number":11,"part_name":"madhya vidyalaya bisikala (dakshini bhag)","lat":25.307576,"lng":84.2204693},{"part_number":12,"part_name":"Prathamik Vidyalay Bisikhurd","lat":25.347055,"lng":84.1101833},{"part_number":13,"part_name":"Madhya Vidyalay Koiriya kamra no-1","lat":25.337595,"lng":84.0888067},{"part_number":14,"part_name":"MADHYA VIDHALAY KOIRIYA kamra no-2","lat":25.55661,"lng":84.8369367},{"part_number":15,"part_name":"Prathamik Vidyalay Laheri","lat":25.33672,"lng":84.0974117},{"part_number":16,"part_name":"Prathamik Vidyalay Ishwarpura","lat":25.3357783,"lng":84.1068333},{"part_number":17,"part_name":"Prathamik Vidyalay Belahan kamra no-1","lat":25.3298538,"lng":84.1168026},{"part_number":18,"part_name":"Prathamik Vidyalay Benasagar (pashchimi bhag)","lat":25.3578591,"lng":84.135295},{"part_number":19,"part_name":"prathmik vidhaly bensagar (purvi bhag)","lat":25.3576523,"lng":84.135449},{"part_number":20,"part_name":"prathmik vidhaly pogadhi","lat":25.3661414,"lng":84.1471026},{"part_number":21,"part_name":"Madhya Vidyalay Medanipur (Paschmi Bhag)","lat":25.3581683,"lng":84.1526517},{"part_number":22,"part_name":"madhy Vidyalay MedniPur (Purvi Bhag) kamara no-1","lat":25.3583729,"lng":84.1523234},{"part_number":23,"part_name":"Utcramit Madhya Vidyalay Chorpokhar English (Purvi Bhag) kamara no-1","lat":25.3482144,"lng":84.123799},{"part_number":24,"part_name":"Utcramit Madhya Vidyalay Chorpokhar English (Paschami Bhag)","lat":25.3481847,"lng":84.1240149},{"part_number":25,"part_name":"Prathamik Vidyalay Manoharpur","lat":25.3412317,"lng":84.1512467},{"part_number":26,"part_name":"Madhya Vidyalay Badsara (Uttar Bhag)","lat":25.3291983,"lng":84.1320651},{"part_number":27,"part_name":"Madhya Vidyalay Badsara (Dakshin Bhag)","lat":25.3292401,"lng":84.1316594},{"part_number":28,"part_name":"Sarvoday uchcha vidyalay ganjbhadasar kamra no-1","lat":25.3295165,"lng":84.1351772},{"part_number":29,"part_name":"SARODAYA UNCH VIDHALAY GANJBHARASARA kamara no-2","lat":25.32796,"lng":84.1340566},{"part_number":30,"part_name":"Madhya vidyalay arthu kamara no-1","lat":25.3298467,"lng":84.1526333},{"part_number":31,"part_name":"MADHYA VIDHALAY ARTHU kamara no-2","lat":25.3302326,"lng":84.1524031},{"part_number":32,"part_name":"Prathamik Vidyalay Panjari","lat":25.31329,"lng":84.1400633},{"part_number":33,"part_name":"Anganwari kendra vichhiyaw kendra sankhya-31","lat":25.3148349,"lng":84.1259064},{"part_number":34,"part_name":"Prathmik vidyalay vasudev dihari kamara no-1","lat":25.3283983,"lng":84.1324033},{"part_number":35,"part_name":"Prathmik Vidyalay bhaisara","lat":25.3196433,"lng":84.1532833},{"part_number":36,"part_name":"utkarmit madhya vidhalya bakra kamara no-1","lat":25.3040329,"lng":84.1506862},{"part_number":37,"part_name":"UTKRAMIT MADHYA VIDYALAY,BAKRA kamra no-2","lat":25.3046633,"lng":84.15069},{"part_number":38,"part_name":"Madhya Vidyalay gunsej (Purvi bhag) kamara no-1","lat":25.3019832,"lng":84.1591732},{"part_number":39,"part_name":"Madhya vidyalay gunsej (Pashchimi bhag)","lat":25.3021965,"lng":84.1591248},{"part_number":40,"part_name":"Prathmik vidyalay Lohara kamara no-1","lat":25.2947883,"lng":84.1443217},{"part_number":41,"part_name":"Panchayat bhawan Khanita","lat":25.2871783,"lng":84.1430633},{"part_number":42,"part_name":"Madhya Vidyalay Khanita","lat":25.2798817,"lng":84.1357631},{"part_number":43,"part_name":"Prathmik Vidyalay Basuhari","lat":25.283975,"lng":84.153905},{"part_number":44,"part_name":"Madhya Vidyalay Baradhi kamra no-1","lat":25.3127233,"lng":84.11304},{"part_number":45,"part_name":"Prathamik Vidyalay Tetarhar kamra no-1","lat":25.3025313,"lng":84.1151187},{"part_number":46,"part_name":"Utkramit Madhya Vidyalay Lilbachh (Uttar Bhag)","lat":25.3002045,"lng":84.1337745},{"part_number":47,"part_name":"Utkramit Madhya Vidyalay Lilbachh (Dakshin Bhag)","lat":25.30061,"lng":84.1367917},{"part_number":48,"part_name":"Utkrmit Madhaya Vidyalay dharkandha (Purvi bhag) kamra no-1","lat":25.2927849,"lng":84.1024781},{"part_number":49,"part_name":"Utkramit Madhya vidyalay Dharkandha (Pashchimi bhag)","lat":25.292864,"lng":84.1028723},{"part_number":50,"part_name":"Prathmik vidyalay Ghorwachh kamara no-1","lat":25.2807773,"lng":84.1190659},{"part_number":51,"part_name":"Prathmik Vidyalay Gaura","lat":25.2811611,"lng":84.1317451},{"part_number":52,"part_name":"Prathamik Vidyalay Manihari","lat":25.3323683,"lng":84.0692367},{"part_number":53,"part_name":"Prathmik Vidyalay Yogiya","lat":25.323672,"lng":84.0726574},{"part_number":54,"part_name":"Utkramit Madhya Vidyalay Khakhrahi","lat":25.3314083,"lng":84.0644533},{"part_number":55,"part_name":"Prathamik Vidyalay Semri kamara no-1","lat":25.3105068,"lng":84.0687185},{"part_number":56,"part_name":"Utkramit Madhya Vidyalay Bhui kamara no-1","lat":25.3215751,"lng":84.0867122},{"part_number":57,"part_name":"Utkramit Madhya Vidyalay Chilbila Kamra no-2","lat":25.3155529,"lng":84.0972477},{"part_number":58,"part_name":"Prathmik Vidyalay koni","lat":25.3192919,"lng":84.1067933},{"part_number":59,"part_name":"Prathmik Vidyalay Mohanpur","lat":25.31719,"lng":84.1202833},{"part_number":60,"part_name":"Prathamik Vidyalay Sarnamathiya (utar bhag)","lat":25.291494,"lng":84.0582535},{"part_number":61,"part_name":"Prathmik Vidyalay Sarnamathiya (Dakshini Bhag) kamra no-1","lat":25.291825,"lng":84.0579851},{"part_number":62,"part_name":"Prathamik Vidyalay Bhatpurwa","lat":25.3043783,"lng":84.0769866},{"part_number":63,"part_name":"madhy Vidyalay Bhanpur (Purvi Bhag) KAMRA NO-1","lat":25.2974606,"lng":84.0803869},{"part_number":64,"part_name":"Madhya Vidyalay Bhanpur (Pashchimi Bhag) KAMRA NO-1","lat":25.2975109,"lng":84.0803741},{"part_number":65,"part_name":"Utkramit Madhya Vidyalay Bhanpur (Jagdishpur tola) (Uttar bhag) KAMRA NO-1","lat":25.2801435,"lng":84.0803582},{"part_number":66,"part_name":"UTKRAMIT MADHYA VIDYALAY, BHANPUR JAGDISHPUR TOLA (UTAR BHAG) KAMRA O-2","lat":25.2801812,"lng":84.0799337},{"part_number":67,"part_name":"Utkramit Madhya Vidyalay Bhanpur (Jagdishpur tola) (Dakshin bhag) Kamra no-1","lat":25.2800587,"lng":84.0798684},{"part_number":68,"part_name":"Madhya Vidyalay Baradhi Kala kamra no-1","lat":25.2847619,"lng":84.054454},{"part_number":69,"part_name":"Prathmik vidyalay Rehi","lat":25.2821404,"lng":84.0640254},{"part_number":70,"part_name":"Madhya vidyalaya Jamrodh kamra no-1","lat":25.26591,"lng":84.055235},{"part_number":71,"part_name":"MADHYA VIDHALAY JAMRODH kamara no-2","lat":25.5545834,"lng":84.4476789},{"part_number":72,"part_name":"Utkrmit Kanya Madhaya Vidyalay Jamrodh (Purvi bhag) KAMRA NO-1","lat":25.26563,"lng":84.0488533},{"part_number":73,"part_name":"Utkramit Kanya Madhya Vidyalay Jamrodh (Pashchimi bhag) kamra no-1","lat":25.2475271,"lng":84.064808},{"part_number":74,"part_name":"Utkramit Madhya Vidyalay Jigana (Uttari Bhat)","lat":25.2713817,"lng":84.0728167},{"part_number":75,"part_name":"Utkramit Madhya Vidyalay Jigana (Dakshini bhat)","lat":25.2715005,"lng":84.0724834},{"part_number":76,"part_name":"Prathmik Vidyalay Dharmagatpur","lat":25.2609517,"lng":84.079715},{"part_number":77,"part_name":"Utkramit Madhya Vidyalay Karanj (Purvi Bhag) kamra no-1","lat":25.2708741,"lng":84.0937775},{"part_number":78,"part_name":"Utkramit Madhya Vidyalay Karanj (Pashchimi bhag)","lat":25.2709006,"lng":84.093631},{"part_number":79,"part_name":"Utkramit Madhya Vidyalay Sarna kamra no-1","lat":25.2710622,"lng":84.1167169},{"part_number":80,"part_name":"UTKRAMIT MADHYA VIDYALAY, SARNA kamra no-2","lat":25.2708033,"lng":84.116255},{"part_number":81,"part_name":"prathmik vidyalaya mukundpur kamra no-1","lat":25.2759408,"lng":84.0992805},{"part_number":82,"part_name":"Rajkiy Urdu Prathmik Vidyalay Mustafapur kamra no-1","lat":25.2674151,"lng":84.0911428},{"part_number":83,"part_name":"Prathamik Vidyalay Ranni","lat":25.2427392,"lng":84.054378},{"part_number":84,"part_name":"Prathamik Vidyalay, Pachauli","lat":25.2566901,"lng":84.100131},{"part_number":85,"part_name":"Sri Yakshini Uchch Vidyalay Bhaluni Dham (Purvi Bhag)","lat":25.2586609,"lng":84.1257509},{"part_number":86,"part_name":"Sri Yakshini Uchch Vidyalay Bhaluni Dham (Pashchimi Bhag)","lat":25.2424243,"lng":84.0648796},{"part_number":87,"part_name":"Prathamik Vidyalay Tenuaath kamra no-1","lat":25.2760101,"lng":84.1219087},{"part_number":88,"part_name":"Prathmik Vidyalay Haribanshpur (Uttari bhag)","lat":25.2488933,"lng":84.122805},{"part_number":89,"part_name":"Prathmik Vidyalay Haribanshpur (Dakshini bhag)","lat":25.2488767,"lng":84.1221583},{"part_number":90,"part_name":"Prathmik Vidyalay Vishambharpur (Purvi Bhag) kamra no-1","lat":25.2584423,"lng":84.1535712},{"part_number":91,"part_name":"Prathamik Vidyalay Vishambharpur (Pashchimi Bhag)","lat":25.2826277,"lng":84.158517},{"part_number":92,"part_name":"Utkramit Madhya Vidyalaya Nauwa","lat":25.2662927,"lng":84.1589762},{"part_number":93,"part_name":"Prathmik Vidyalay Dubedihari","lat":25.275385,"lng":84.1633783},{"part_number":94,"part_name":"Prathamik Vidyalay Pipri Kamra N0-1","lat":25.247195,"lng":84.1487383},{"part_number":95,"part_name":"Sarkari Pustakalay Bardiya","lat":25.2433567,"lng":84.070652},{"part_number":96,"part_name":"Prathamik Vidyalay Natwar Khurd Kamra No-1","lat":25.2436533,"lng":84.16006},{"part_number":97,"part_name":"PRATHMIK VIDYALAY NATWAR KHURAD KAMRA NO-2","lat":25.2436233,"lng":84.1609832},{"part_number":98,"part_name":"Prathmik Vidyalay Amuaa","lat":25.2567783,"lng":84.1619536},{"part_number":99,"part_name":"Utkramit Madhya vidyalay Natwar kala (Purvi Bhag)","lat":25.2326686,"lng":84.1630952},{"part_number":100,"part_name":"Utkramit Madhya Vidyalay Natwar kala (Pashchimi bhag)","lat":25.2359211,"lng":84.1598121},{"part_number":101,"part_name":"Utkramit Madhya Vidyalay Natwar kala (Madhya bhag)","lat":25.2357897,"lng":84.162685},{"part_number":102,"part_name":"Vyapar Mandal Natwar Kamra no-1","lat":25.2338372,"lng":84.1615874},{"part_number":103,"part_name":"Prathmik Vidyalay Tenuaj (Purvi Bhag)","lat":25.2277053,"lng":84.1556087},{"part_number":104,"part_name":"UCHCH VIDYALAY TENUAJ KAMARA NO-1","lat":25.22722,"lng":84.1629683},{"part_number":105,"part_name":"Utkramit madhaya vidhalaya Rajpur (Pruvi bhag) kamra no-1","lat":25.2370633,"lng":84.1280483},{"part_number":106,"part_name":"UTKRAMIT MADHYA VIDYALAY, (PURVI BHAG) KAMRA NO-2","lat":25.2371584,"lng":84.1280388},{"part_number":107,"part_name":"Utkramit Madhya Vidyalay Rajpur (Pashchimi bhag)","lat":25.2375833,"lng":84.1276583},{"part_number":108,"part_name":"Prathmik Vidyalay Jamodhi (Purvi Bhag)","lat":25.23825,"lng":84.1194185},{"part_number":109,"part_name":"Prathmik vidyalay Jamodhi (Pashchimi bhag)","lat":25.2341257,"lng":84.1583442},{"part_number":110,"part_name":"Prathmik Vidyalay maudihara kamra no-1","lat":25.2293619,"lng":84.1364648},{"part_number":111,"part_name":"Prathmik Vidyalay Asisya Kamra N0-1","lat":25.2192817,"lng":84.1411417},{"part_number":112,"part_name":"Utkramit Madhya Vidyalay ahrow (Uttar bhag)","lat":25.2085651,"lng":84.1512634},{"part_number":113,"part_name":"Utkramit Madhya Vidyalay ahrow (Dakshini Bhag)","lat":25.2088299,"lng":84.1515438},{"part_number":114,"part_name":"Shr shankar madhya vidyalay belwaiya (Uttar Bhag)","lat":25.2465601,"lng":84.08399},{"part_number":115,"part_name":"Sri Shankar Madhya Vidyalay Belwaiya (Dakshini Bhag)","lat":25.2465683,"lng":84.0840333},{"part_number":116,"part_name":"Prathmik Vidyalay Niyajipur","lat":25.2425816,"lng":84.1159454},{"part_number":117,"part_name":"Madhya Vidyalay Mahrodh (Dakshini bhag) Kamra no-1","lat":25.239935,"lng":84.1016683},{"part_number":118,"part_name":"Madhya Vidyalay Mahrodh (Uttari Bhag)","lat":25.2399851,"lng":84.1018539},{"part_number":119,"part_name":"Utkramit Madhya Vidyalay Bhanas(Uttari Bhag) Kamra N0-1","lat":25.2254795,"lng":84.0908467},{"part_number":120,"part_name":"Utkramit Madhya Vidyalay Bhanas (Dakshini Bhag)","lat":25.2252317,"lng":84.0902267},{"part_number":121,"part_name":"Utkramit Madhya Vidyalay Nadauwa Kamra N0-1","lat":25.2276001,"lng":84.1142932},{"part_number":122,"part_name":"Madhya Vidyalay Dinara (Uttari Bhag) Kamra N0-1","lat":25.2485483,"lng":84.0591083},{"part_number":123,"part_name":"Madhya Vidyalay Dinara (Dakshini bhag) Kamra N0-1","lat":25.2479323,"lng":84.0606813},{"part_number":124,"part_name":"Urdu Madhya Vidyalay Dinara Kamra N0-1","lat":25.24842,"lng":84.0645183},{"part_number":125,"part_name":"Panchayat bhawan Dinara (Pashchimi bhag)","lat":25.2481444,"lng":84.058334},{"part_number":126,"part_name":"Panchayat bhawan dinara (purvi bhag)","lat":25.2480014,"lng":84.0582997},{"part_number":127,"part_name":"Baldev Uchch Vidyalay Dinara (Purvi Bhag) Kamra N0-1","lat":25.2464523,"lng":84.05625},{"part_number":128,"part_name":"Baldev Uchch Vidyalay Dinara (Pashchimi Bhag) Kamra N0-1","lat":25.2458583,"lng":84.055775},{"part_number":129,"part_name":"Madhya Vidyalay Kund (Purvi Bhag) Kamra N0-1","lat":25.2270967,"lng":84.06276},{"part_number":130,"part_name":"Madhay Vidyalay Kund (Pashchimi Bhag)","lat":25.2272104,"lng":84.0627178},{"part_number":131,"part_name":"Prathamik Vidyalay Bariyarpur Kamra N0-1","lat":25.2523498,"lng":84.0235362},{"part_number":132,"part_name":"Prathamik Vidyalay Marua","lat":25.2561383,"lng":84.044005},{"part_number":133,"part_name":"Bhukt Mukti Bhawan Khalsapur","lat":25.2490333,"lng":84.0455617},{"part_number":134,"part_name":"Prathmik vidyalay Panditpura Kamra N0-1","lat":25.2530038,"lng":84.0339205},{"part_number":135,"part_name":"Madhya Vidyalay Akodha (Purvi Bhag) Kamra N0-1","lat":25.2341838,"lng":84.0108362},{"part_number":136,"part_name":"Madhya Vidyalay Akodha (Madhya Bhag)","lat":25.2341225,"lng":84.0106968},{"part_number":137,"part_name":"Madhya Vidyalay Akodha (Pashchimi Bhag)","lat":25.2341829,"lng":84.0109996},{"part_number":138,"part_name":"Prathmik Vidyalay Dhawaniya","lat":25.2411473,"lng":84.0363302},{"part_number":139,"part_name":"Anganwari kendra Girdhariya","lat":25.2421878,"lng":84.0462976},{"part_number":140,"part_name":"utkramit madhya vidyalay Kushahi Kmra N0-1","lat":25.2215687,"lng":84.025011},{"part_number":141,"part_name":"Utkramit Madhya Vidyalay Samhuti Kamra N0-1","lat":25.2261067,"lng":84.0485233},{"part_number":142,"part_name":"Prathmik Vidyalay Mathiya Kamra N0-1","lat":25.222625,"lng":84.0512283},{"part_number":143,"part_name":"Prathamik Vidyalay Dihara","lat":25.2115017,"lng":84.047975},{"part_number":144,"part_name":"Prathamik Vidyalay Turki","lat":25.2076384,"lng":84.030806},{"part_number":145,"part_name":"Nawsrijit Prathmik Vidyalay Ghuraki","lat":25.2093705,"lng":84.0358582},{"part_number":146,"part_name":"Prathmik Vidyalay Vishrampur","lat":25.197537,"lng":84.0423491},{"part_number":147,"part_name":"Madhya Vidyalay Kaniyari Kamra N0-1","lat":25.1968786,"lng":84.0472734},{"part_number":148,"part_name":"Madhya Vidyalay Mahawir Asthan Pithani Kamra N0-1","lat":25.1869786,"lng":84.0521152},{"part_number":149,"part_name":"Prathmik Vidyalay Gopalpur (Uttar Bhag)","lat":25.2139059,"lng":84.0720224},{"part_number":150,"part_name":"Prathmik Vidyalay gopalpur (Dakshini Bhag)","lat":25.2139117,"lng":84.0720683},{"part_number":151,"part_name":"Prathamik Vidyalay Bhuawal","lat":25.035845,"lng":83.9663267},{"part_number":152,"part_name":"Prathmik vidyalay khairahi kala","lat":25.2029768,"lng":84.0691267},{"part_number":153,"part_name":"Moti Uchch Vidyalay shankar Sthan Basdiha (Purvi bhag) Kamra N0-1","lat":25.1871148,"lng":84.0770249},{"part_number":154,"part_name":"PRATHMIK VIDYALAY BASDIHA TOLA","lat":25.1816683,"lng":84.0664533},{"part_number":155,"part_name":"Utkramit Madhya Vidyalay Chilhruaa (Uttar Bhag) Kamra N0-1","lat":25.1948297,"lng":84.0846595},{"part_number":156,"part_name":"Utkramit Madhya Vidyalay Chilhruaa (Dakshini bhag)","lat":25.1944033,"lng":84.08515},{"part_number":157,"part_name":"Utkramit Madhya vidyalay Dhanpura","lat":25.1996432,"lng":84.0957838},{"part_number":158,"part_name":"Madhya Vidyalay Kori Kamra N0-1","lat":25.2053087,"lng":84.1058788},{"part_number":159,"part_name":"Utkramit Madhya Vidyalay, Baliya Kamra N0-1","lat":25.204586,"lng":84.1234631},{"part_number":160,"part_name":"UTKRAMIT MADHYA VIDYALAY, BALIYA KAMRA NO-2","lat":25.2045268,"lng":84.1236474},{"part_number":161,"part_name":"Prathamik Vidyalay Karmaini Kamra N0-1","lat":24.958402,"lng":84.0056484},{"part_number":162,"part_name":"Utkramit Madhya Vidyalay Garigow","lat":25.2399354,"lng":83.4315102},{"part_number":163,"part_name":"Prathmik Vidyalay Sahuaadi Kamra N0-1","lat":25.1946683,"lng":84.1228583},{"part_number":164,"part_name":"Prathmik Vidyalay Bairipur Kamra N0-1","lat":25.1709817,"lng":84.1135717},{"part_number":165,"part_name":"Madhya Vidyalay Arila Raghunathpur (Purvi Bhag)","lat":25.1879246,"lng":84.1252076},{"part_number":166,"part_name":"Madhya Vidyalay Arila Raghunathpur (Pashchimi Bhag)","lat":25.1779441,"lng":84.1248777},{"part_number":167,"part_name":"Madhya Vidyalay Saraw (Pashichi bhag)","lat":25.194181,"lng":84.1449067},{"part_number":168,"part_name":"Madhya Vidyalay Saraw (Purvi bhag) Kamra N0-1","lat":25.1942024,"lng":84.1451764},{"part_number":169,"part_name":"Prathmik Vidyalay Karaundi (Purvi Bhag) KAMRA NO-1","lat":25.1946217,"lng":84.1600133},{"part_number":170,"part_name":"Prathmik Vidyalay Karaundi (Pashchimi Bhag)","lat":25.1945567,"lng":84.16205},{"part_number":171,"part_name":"Utkramit Madhya Vidyalay Muswat (Purvi Bhag)","lat":25.1790633,"lng":84.1405733},{"part_number":172,"part_name":"Utkramit Madhya Vidyalay Muswat (Pashchimi Bhag)","lat":25.177785,"lng":84.1405467},{"part_number":173,"part_name":"Prathamik Vidyalay Rampur khurd","lat":25.1707796,"lng":84.1519694},{"part_number":174,"part_name":"Madhya Vidyalay Purvi Bhelari","lat":25.1766943,"lng":84.1080888},{"part_number":175,"part_name":"Prathamik Vidyalay Bichali Bhelari kamra n0-1","lat":25.1730283,"lng":84.0935983},{"part_number":176,"part_name":"Madhya Vidyalay Arang (Uttari Bhag)","lat":25.16302,"lng":84.0745033},{"part_number":177,"part_name":"Madhya Vidyalay Arang (Madhya bhag)","lat":25.1628215,"lng":84.0751225},{"part_number":178,"part_name":"Madhya Vidyalay Arang (Dakshini Bhag) Kamra N0-1","lat":24.9508212,"lng":83.9874661},{"part_number":179,"part_name":"Madhya Vidyalay Semra Kamra No-1","lat":25.1522776,"lng":84.0845714},{"part_number":180,"part_name":"Prathamik Vidyalay khairahi","lat":25.2707598,"lng":84.0936588},{"part_number":181,"part_name":"Prathmik Vidyalay Jagdishpur Kamra N0-1","lat":25.16385,"lng":84.1232283},{"part_number":182,"part_name":"Utkramit Madhya Vidyalay Kharwath (Uttar Bhag) Kamra No-1","lat":25.137875,"lng":84.1134833},{"part_number":183,"part_name":"Utkramit Madhya Vidyalay Kharwath (Dakshini Bhag)","lat":25.13718,"lng":84.1116933},{"part_number":184,"part_name":"Prathmik vidyalay Dharhara","lat":25.1529412,"lng":84.1076314},{"part_number":185,"part_name":"Madhya Vidyalay Karhanshi","lat":25.1523266,"lng":84.1212489},{"part_number":186,"part_name":"Madhya Vidhalay Karhansi (Dakshin Bhag)","lat":25.1521273,"lng":84.1207798},{"part_number":187,"part_name":"UCHCH VIDYALAY KARHNSI","lat":25.1496016,"lng":84.1272916},{"part_number":188,"part_name":"Utkramit vidyalay Nadauwa Kamra no-1","lat":25.1403767,"lng":84.13519},{"part_number":189,"part_name":"Prathmik Vidyalay Damdiya","lat":25.3643547,"lng":84.1635606},{"part_number":190,"part_name":"Prathmik Vidyalay Harakhmal Dihari","lat":25.3623494,"lng":84.1824719},{"part_number":191,"part_name":"Utkramit Madhya vidyalay Akodha","lat":25.363605,"lng":84.1750033},{"part_number":192,"part_name":"Utkramit Madhya Vidyalay Dharkandha","lat":25.3497474,"lng":84.2084456},{"part_number":193,"part_name":"Utkramit Madhya Vidyalay Awadhi kamara no-1","lat":25.3490148,"lng":84.162132},{"part_number":194,"part_name":"Panchayat Bhawan Awadhi","lat":25.3488283,"lng":84.1629733},{"part_number":195,"part_name":"Madhya Vidyalay Jamsona (Purvi Bhag)","lat":25.3407495,"lng":84.1765627},{"part_number":196,"part_name":"Madhya vidyalay Jamsona (Pashchimi bhag)","lat":25.3409045,"lng":84.1767329},{"part_number":197,"part_name":"Utkramit Madhya Vidyalay Chaurati","lat":25.3332785,"lng":84.1595013},{"part_number":198,"part_name":"Prathmik vidyalay Parariya","lat":25.322553,"lng":84.1789552},{"part_number":199,"part_name":"Madhya Vidyalay Chatara (Uttari Bhag)kamara no-1","lat":25.3104717,"lng":84.1644183},{"part_number":200,"part_name":"Madhya Vidyalay Chatara (Dakshini Bhag)","lat":25.3077502,"lng":84.1633828},{"part_number":201,"part_name":"Prathmik vidyalay Chhitani","lat":25.3139614,"lng":84.1763184},{"part_number":202,"part_name":"Prathmik Vidyalay Dewadhi","lat":25.312311,"lng":84.1812623},{"part_number":203,"part_name":"Urdu Madhya Vidyalay Mahuari (Uttari Bhag) kamara no-1","lat":25.3282068,"lng":84.1956301},{"part_number":204,"part_name":"Urdu Madhya Vidyalay Mahuari (Dakshini Bhag)","lat":25.3218608,"lng":84.2082816},{"part_number":205,"part_name":"Utkramit Madhya Vidyalay Sahinow kmara no-1","lat":25.30196,"lng":84.1964567},{"part_number":206,"part_name":"UTKARMIT MADHYA VIDHALAYA SAHINOU kamara no-2","lat":25.30194,"lng":84.1963217},{"part_number":207,"part_name":"Prathmik vidyalay bithawa kamara no-1","lat":25.305005,"lng":84.21623},{"part_number":208,"part_name":"Urdu Prathmik Vidyalay Bithawa","lat":25.3072617,"lng":84.21392},{"part_number":209,"part_name":"Urdu Prathamik Vidyalay Rasulpur (Bithwa)","lat":25.3064767,"lng":84.2190733},{"part_number":210,"part_name":"Madhya Vidyalay Dawath (Uttari bhag)","lat":25.3017959,"lng":84.2226334},{"part_number":211,"part_name":"Madhya Vidyalay Dawath (Dakshini Bhag) kamara no-1","lat":25.3017,"lng":84.223},{"part_number":212,"part_name":"Kanya Madhya Vidyalay Dawath (Purvi bhag)","lat":25.3016,"lng":84.2231},{"part_number":213,"part_name":"Kanya Madhya Vidyalay Dawath (Pashchimi Bhag)","lat":25.3017107,"lng":84.2227216},{"part_number":214,"part_name":"Utkramit Madhya Vidyalay bodadhi kamara no-1","lat":25.2925245,"lng":84.2036694},{"part_number":215,"part_name":"Nawsrijit Prathmik Vidyalay Bodadhi Mathiya","lat":25.2831753,"lng":84.2044792},{"part_number":216,"part_name":"Madhya vidyalay Babhnaul (Dakshini bhag) kamara no-1","lat":25.3194324,"lng":84.2122347},{"part_number":217,"part_name":"Anganwadi Kendra Sankhya 46 Madhya Vidyalay babhanaul ke Pass","lat":25.3167367,"lng":84.2121817},{"part_number":218,"part_name":"Madhya Vidyalay Babhnaul (Uttari Bhag) kamara no-1","lat":25.3172417,"lng":84.2126983},{"part_number":219,"part_name":"Madarsa Babhnaul (Uttari Bhag)","lat":25.3173783,"lng":84.212555},{"part_number":220,"part_name":"Madarsa Babhnaul (Dakshin Bhag)","lat":25.3213973,"lng":84.213358},{"part_number":221,"part_name":"Madhya Vidyalay Babhnaul Naya Bhawan (Uttari Bhag) kamara no-1","lat":25.322215,"lng":84.2147817},{"part_number":222,"part_name":"NAVSRIJIT PRATHMIK VIDYALAY YADAV TOLA BABHNOUL","lat":25.3230762,"lng":84.2235837},{"part_number":223,"part_name":"Prathmik Vidyalay Parsiya Khurd","lat":25.3633927,"lng":84.2008703},{"part_number":224,"part_name":"Prathmik Vidyalay Dhavai","lat":25.3561504,"lng":84.2118937},{"part_number":225,"part_name":"Utkrmit Kanya Madhaya Vidyalay Parsiya Kala kamara no-1","lat":25.3537386,"lng":84.1992988},{"part_number":226,"part_name":"Madhya Vidyalay Semri kamara no-1","lat":25.34453,"lng":84.2110667},{"part_number":227,"part_name":"MADHYA VIDHALYA SEMARI kamara no-2I","lat":25.3440533,"lng":84.2120867},{"part_number":228,"part_name":"Rampiyar Singh +2 uchch Vidylay Kavai (Uttari Bhag)","lat":25.3482507,"lng":84.2103518},{"part_number":229,"part_name":"Rampiyar Singh +2 uchch Vidylay Kavai (Dakshani Bhag)","lat":25.3476119,"lng":84.2097936},{"part_number":230,"part_name":"Tahsil Kachhari Semri Naya Bhawan","lat":25.3400524,"lng":84.1986383},{"part_number":231,"part_name":"Tahsil Kachhari Semri Purana Bhawan","lat":25.3399213,"lng":84.1987658},{"part_number":232,"part_name":"Utcramit Madhya Vidyalay Semri Balak (Purvi Bhag)","lat":25.3409663,"lng":84.199705},{"part_number":233,"part_name":"Utkrmit Kanya Madhaya Vidyalay Semri (paschami Bhag)","lat":25.34093,"lng":84.1997233},{"part_number":234,"part_name":"Naya Utkramit Secendri School Paramdih","lat":25.3472533,"lng":84.2395217},{"part_number":235,"part_name":"Prathamik Vidyalay Batsa","lat":25.3338765,"lng":84.2135523},{"part_number":236,"part_name":"Utkrmit Madhaya Vidyalay Bahuara kamara no-1","lat":25.346032,"lng":84.253089},{"part_number":237,"part_name":"Prathamik Vidyalay Babhni","lat":25.3528819,"lng":84.265575},{"part_number":238,"part_name":"Prathmik Vidyalay Jagodhra","lat":25.3510893,"lng":84.2764347},{"part_number":239,"part_name":"Utkarmit Madhya Vidyalay Hamir Dihri","lat":25.3597939,"lng":84.2820284},{"part_number":240,"part_name":"Prathmik Vidyalay Shahpur kamara no-1","lat":25.3407126,"lng":84.2359051},{"part_number":241,"part_name":"Utcramit Madhya Vidyalay Khairhi","lat":25.3433369,"lng":84.2123122},{"part_number":242,"part_name":"Madhya Vidyalay Etwa ( purvi bhag)","lat":25.3441896,"lng":84.2637267},{"part_number":243,"part_name":"Madhya Vidyalay Etwa ( paschimi bhag)","lat":25.3332972,"lng":84.2649167},{"part_number":244,"part_name":"Utkrmit Kanya Madhaya Bairiya","lat":25.3312118,"lng":84.2968326},{"part_number":245,"part_name":"Prathmik Vidyalay Jhalkhoriya","lat":25.3419671,"lng":84.2697746},{"part_number":246,"part_name":"Utkramit Madhya Vidyalay Devgana kamara no-1","lat":25.3246633,"lng":84.2364133},{"part_number":247,"part_name":"utkarmit Madhya Vidyalay Bhundadih","lat":25.3315248,"lng":84.2320291},{"part_number":248,"part_name":"Prathmik Vidyalay Sundar kamara no-1","lat":25.3032682,"lng":84.2214796},{"part_number":249,"part_name":"Panchayat Bhawan Usari kamara no-1","lat":25.3018233,"lng":84.2399917},{"part_number":250,"part_name":"Utkramit Madhya Vidyalay Kedar Chauri","lat":25.2996681,"lng":84.2437574},{"part_number":251,"part_name":"Prathmik Vidyalay Fatehganj","lat":25.3355443,"lng":84.2423877},{"part_number":252,"part_name":"Kanya Madhya Vidyalay Koath (Uttari Bhag) kamara no-1","lat":25.3301603,"lng":84.2594694},{"part_number":253,"part_name":"Kanya Madhya Vidyalay Koath (Dakshani Bhag) kamara no-1","lat":25.3320499,"lng":84.2709716},{"part_number":254,"part_name":"Urdu Madhya Vidyalay Koath kamara no-1","lat":25.3242002,"lng":84.2558555},{"part_number":255,"part_name":"Rajaullum Madarsa Koath (Purvi Bhag) kamara no-1","lat":25.3253169,"lng":84.2589923},{"part_number":256,"part_name":"Rajaullum Madarsa Koath (Pashchmi Bhag) kamara no-1","lat":25.3252065,"lng":84.2591782},{"part_number":257,"part_name":"RAJAULLUM MADARSA KOATH (PASCHIMI BHAG) KAMARA NO-2","lat":25.3250973,"lng":84.2588193},{"part_number":258,"part_name":"Prathmik Vidyalay Majhauli kamara no-1","lat":25.3320426,"lng":84.2718422},{"part_number":259,"part_name":"Madhya Vidyalay Yogini (Purvi Bhag) kamara no-1","lat":25.3239199,"lng":84.2530503},{"part_number":260,"part_name":"Madhya vidyalaya YogIni (Pashchimi Bhag) kamara no-1","lat":25.324274,"lng":84.253107},{"part_number":261,"part_name":"Prathmik Vidyalay Gangati kamara no-1","lat":25.0231374,"lng":84.4277122},{"part_number":262,"part_name":"Prathmik Vidyalay Diliya (purvi bhag)","lat":25.315895,"lng":84.261323},{"part_number":263,"part_name":"Prathmik Vidyalay Diliya (Pashchimi Bhag)","lat":25.317755,"lng":84.2597033},{"part_number":264,"part_name":"Prathamik Vidyalay Chakchatar kamara no-1","lat":25.3245623,"lng":84.2788923},{"part_number":265,"part_name":"Utkrmit Madhaya Vidyalay Naktauli kamara no-1","lat":25.3235239,"lng":84.297747},{"part_number":266,"part_name":"Prathmik Vidyalay Parmanandpur Balak","lat":25.3180578,"lng":84.3166787},{"part_number":267,"part_name":"Prathamik Vidyalay Gidha (Uttari Bhag) KAMARA NO-1","lat":25.3147758,"lng":84.2968844},{"part_number":268,"part_name":"Prathmik Vidyalay Gidha (Dakshani Bhag) kamara no-1","lat":25.5518772,"lng":84.2296029},{"part_number":269,"part_name":"Utkrmit Madhaya Vidyalay Hathdiha (Purvi Bhag)","lat":25.3089607,"lng":84.319262},{"part_number":270,"part_name":"Utkramit Madhya Vidyalay Hathdiha (Pashchm Bhag)","lat":25.3088933,"lng":84.319385},{"part_number":271,"part_name":"Jagdyal Singh +2 Ucch Vidyalay Dedhgaw (Purvi Bhag) Kamara no-2","lat":25.3108742,"lng":84.2958457},{"part_number":272,"part_name":"Jagdyal Singh +2 Ucch Vidyalay Dedhgaw (Madhya Bhag)","lat":25.2981003,"lng":84.2976804},{"part_number":273,"part_name":"Jagdyal Singh +2 Ucch Vidyalay Dedhgaw (Pashchmi Bhag)","lat":25.297319,"lng":84.2984772},{"part_number":274,"part_name":"Madhya Vidyalay Dedhgawn","lat":25.2953383,"lng":84.2941185},{"part_number":275,"part_name":"utkarmit Madhya Vidyalay ramnagar (purvi bhag)","lat":25.2942834,"lng":84.3263895},{"part_number":276,"part_name":"Utkramit Madhya Vidyalay Ramnagar (Pashchmi bhag)","lat":25.2959636,"lng":84.3251941},{"part_number":277,"part_name":"Utkrmit Kanya Madhaya Katailbal","lat":25.2820935,"lng":84.328708},{"part_number":278,"part_name":"Prathamik Vidyalay Tilakpura","lat":25.2893483,"lng":84.3156483},{"part_number":279,"part_name":"Utkramit Madhya Vidyalay agred kala (purvi bhag) kamara no-1","lat":25.2951301,"lng":84.1771548},{"part_number":280,"part_name":"Utkramit madhya Vidyalay agred Kala (pachkshmi bhag) kamara no-1","lat":25.2951449,"lng":84.1770568},{"part_number":281,"part_name":"Rajkiye Madhya Vidyalay AgredKhurd (Utar Bhag) kamara no-1","lat":25.2793217,"lng":84.1700633},{"part_number":282,"part_name":"Rajkiye Madhya Vidyalay Agred Khurd (Dakshini bhag) kamara no-1","lat":25.2882761,"lng":84.1707148},{"part_number":283,"part_name":"Utkramit Madhya Vidyalay Lakhanpura","lat":25.2789483,"lng":84.1803949},{"part_number":284,"part_name":"Utkrmit Madhaya Vidyalay Surhuriya","lat":25.2786854,"lng":84.1981517},{"part_number":285,"part_name":"utkarmit madhya vidylay Dabariya (Uttari Bhag)","lat":25.2691739,"lng":84.1951723},{"part_number":286,"part_name":"utkarmit madhya vidhalya dabariya (Dakshin Bhag)","lat":25.2691332,"lng":84.1954215},{"part_number":287,"part_name":"utkarmit madhya vidhalya bharkuriya kala","lat":25.2738482,"lng":84.2142545},{"part_number":288,"part_name":"panchayat bhawan barun kamra no-1","lat":25.2599931,"lng":84.2303431},{"part_number":289,"part_name":"utkarmit madhya vidhalya barun kamara no-1","lat":25.2632594,"lng":84.2262567},{"part_number":290,"part_name":"raj rajeshwari uchh vidhalya suryapura kamara no-1","lat":25.254083,"lng":84.2250322},{"part_number":291,"part_name":"Raj Rajeshwari uchh vidhalay Suryapura Kamara No-2","lat":25.2542317,"lng":84.2245583},{"part_number":292,"part_name":"kanya prathmik vidhalya suryapura kamara no-1","lat":25.2578181,"lng":84.2229644},{"part_number":293,"part_name":"madhya vidhalya suryapura (utari bhag)","lat":25.2553062,"lng":84.2240922},{"part_number":294,"part_name":"madhya vidhalya suryapura (Dakshini bhag)","lat":25.2593023,"lng":84.2224455},{"part_number":295,"part_name":"utkarmit madhya vidyalay imirita","lat":25.2756687,"lng":84.2636003},{"part_number":296,"part_name":"utkarmit madhya vidyalay gothani kamara no-1","lat":25.27571,"lng":84.2255367},{"part_number":297,"part_name":"utkarmit madhya vidhalya kalyani kamara no-1","lat":25.2821491,"lng":84.2285547},{"part_number":298,"part_name":"utkarmit madhay vidhalya shivobahar (purvi bhag)","lat":25.2867482,"lng":84.2352888},{"part_number":299,"part_name":"utakrmit madhya vidhalya shivoubahar (pashchimi bhag)","lat":25.2817238,"lng":84.2401732},{"part_number":300,"part_name":"prathmik vidhalya padariya","lat":25.286885,"lng":84.2527117},{"part_number":301,"part_name":"prathmik vidhalya raghodihara","lat":25.2929579,"lng":84.2426542},{"part_number":302,"part_name":"utkarmit madhya vidhalya kawai kamara no-1","lat":25.2736933,"lng":84.261525},{"part_number":303,"part_name":"prathmik vidhalya andhar kamara no-1","lat":25.2707917,"lng":84.27368},{"part_number":304,"part_name":"utkarmit madhay vidyalay kosanda khurd kamara no-1","lat":25.2982163,"lng":84.2597901},{"part_number":305,"part_name":"prathmik vidhalya dhago","lat":25.2997612,"lng":84.2566882},{"part_number":306,"part_name":"utkarmit madhya vidhaly ratanpatti kamara no-1","lat":25.2938983,"lng":84.2837333},{"part_number":307,"part_name":"madhya vidhalya goshaldih (utari bhag)","lat":25.2878849,"lng":84.2693147},{"part_number":308,"part_name":"madhay vidhalay goshaldih (dakshin bhag)","lat":25.2874195,"lng":84.2693323},{"part_number":309,"part_name":"Prathamik Vidyalay, Hukadih","lat":25.2786527,"lng":84.2741908},{"part_number":310,"part_name":"Prathamik Vidyalay, Madaina","lat":25.2885093,"lng":84.2783909},{"part_number":311,"part_name":"Madhya Vidyalay, Karama (Kali Sthan ke pass) kamara no-1","lat":25.2753121,"lng":84.285483},{"part_number":312,"part_name":"Madhya Vidyalay, Karama Road ke pass","lat":25.2697818,"lng":84.2846227},{"part_number":313,"part_name":"Utkramit Madhya Vidyalay, Jamuada kamara no-1","lat":25.2842585,"lng":84.2989565},{"part_number":314,"part_name":"Utkramit madhay vidayalay suara kamara no-1","lat":25.2737775,"lng":84.3011877},{"part_number":315,"part_name":"Prathamik Vidyalay, Kalyanapur","lat":25.27175,"lng":84.3040367},{"part_number":316,"part_name":"Utkramit Madhya Vidyalay, Narayanapur kamara no-1","lat":25.2861093,"lng":84.2283735},{"part_number":317,"part_name":"Utkramit Madhya Vidyalay, Kharonj Kala (uttari bhag)","lat":25.2543967,"lng":84.218805},{"part_number":318,"part_name":"Utkramit Madhya Vidyalay, Kharonj Kala (dakshini bhag)","lat":25.2545233,"lng":84.218645},{"part_number":319,"part_name":"Utkramit Madhya Vidyalay, Balihar (uttari bhag)","lat":25.2517712,"lng":84.2306176},{"part_number":320,"part_name":"Harijan Prathamik Vidyalay, Suryapura (Musahar Tola) kamara no-1","lat":25.2537733,"lng":84.2273883},{"part_number":321,"part_name":"Harijan Prathamik vidyalay Suryapura (Musahar Tola) kamara No-2","lat":25.2533609,"lng":84.2268466},{"part_number":322,"part_name":"Utkramit Madhya Vidyalay, Balihar (dakshini bhag)","lat":25.25171,"lng":84.2306267},{"part_number":323,"part_name":"Utkramit Madhya Vidyalay, Aliganj (purvi bhag)","lat":25.2557558,"lng":84.2429311},{"part_number":324,"part_name":"Utkramit Madhya Vidyalay, Aliganj (paschimi bhag)","lat":25.2561327,"lng":84.2434655},{"part_number":325,"part_name":"Prathamik Vidyalay, Chavariya","lat":25.2701283,"lng":84.2517567}]